{
    "type": "FeatureCollection",
    "name": "stations",
    "crs": { "type": "name", "properties": { "name": "urn:ogc:def:crs:OGC:1.3:CRS84" } },
    "features": [
    { "type": "Feature", "properties": { "name": "Amgalan" }, "geometry": { "type": "Point", "coordinates": [ 106.997907000026103, 47.913428999907488 ] } },
    { "type": "Feature", "properties": { "name": "Arvaikheer Sumiin Zakhirgaa" }, "geometry": { "type": "Point", "coordinates": [ 102.777318999999864, 46.259495999999871 ] } },
    { "type": "Feature", "properties": { "name": "Baruun 4 zam" }, "geometry": { "type": "Point", "coordinates": [ 106.89419440002294, 47.915383299924223 ] } },
    { "type": "Feature", "properties": { "name": "Bayankhoshuu" }, "geometry": { "type": "Point", "coordinates": [ 106.822752000020699, 47.957559999934176 ] } },
    { "type": "Feature", "properties": { "name": "Bayanzrukh 27r khoroo" }, "geometry": { "type": "Point", "coordinates": [ 106.931421000023974, 47.939126999918507 ] } },
    { "type": "Feature", "properties": { "name": "Bayanzurkh 24r khoroo" }, "geometry": { "type": "Point", "coordinates": [ 106.987388000025732, 47.925952999909299 ] } },
    { "type": "Feature", "properties": { "name": "Bayanzurkh 2r khoroo" }, "geometry": { "type": "Point", "coordinates": [ 106.935634000024109, 47.933671999917848 ] } },
    { "type": "Feature", "properties": { "name": "Bayanzurkh 9r khoroo" }, "geometry": { "type": "Point", "coordinates": [ 107.006293000026261, 47.935862999905972 ] } },
    { "type": "Feature", "properties": { "name": "Bukhiin urguu" }, "geometry": { "type": "Point", "coordinates": [ 106.937361100024233, 47.917605599917593 ] } },
    { "type": "Feature", "properties": { "name": "ChD 10r khoroo" }, "geometry": { "type": "Point", "coordinates": [ 106.906028000023213, 47.93693099992241 ] } },
    { "type": "Feature", "properties": { "name": "Khan-Uul 16r khoroo" }, "geometry": { "type": "Point", "coordinates": [ 106.770765000019509, 47.85791599994085 ] } },
    { "type": "Feature", "properties": { "name": "Khan-Uul 7r khoroo" }, "geometry": { "type": "Point", "coordinates": [ 106.80391300002043, 47.866313999936729 ] } },
    { "type": "Feature", "properties": { "name": "Misheel expo" }, "geometry": { "type": "Point", "coordinates": [ 106.882472200022647, 47.894338899925991 ] } },
    { "type": "Feature", "properties": { "name": "Mongol gazar" }, "geometry": { "type": "Point", "coordinates": [ 106.85070830002168, 47.903538899930467 ] } },
    { "type": "Feature", "properties": { "name": "Nisekh" }, "geometry": { "type": "Point", "coordinates": [ 106.779094000019754, 47.863942999939837 ] } },
    { "type": "Feature", "properties": { "name": "SBD 12r khoroo" }, "geometry": { "type": "Point", "coordinates": [ 106.91905900002358, 47.942935999920422 ] } },
    { "type": "Feature", "properties": { "name": "SKhD Emneleg" }, "geometry": { "type": "Point", "coordinates": [ 106.846383000021532, 47.915243999931043 ] } },
    { "type": "Feature", "properties": { "name": "Songinoikhairkhan 26r khoroo" }, "geometry": { "type": "Point", "coordinates": [ 106.793034000019929, 47.937127999938021 ] } },
    { "type": "Feature", "properties": { "name": "Songinoikhairkhan 67r Surguuli" }, "geometry": { "type": "Point", "coordinates": [ 106.826962000020842, 47.953245999933621 ] } },
    { "type": "Feature", "properties": { "name": "Songinoikhairkhan 9r khoroo" }, "geometry": { "type": "Point", "coordinates": [ 106.836971000021123, 47.957137999932279 ] } },
    { "type": "Feature", "properties": { "name": "Songinokhairkhan" }, "geometry": { "type": "Point", "coordinates": [ 106.848061000021559, 47.917980999930805 ] } },
    { "type": "Feature", "properties": { "name": "Songinokhairkhan 3r khoroo" }, "geometry": { "type": "Point", "coordinates": [ 106.794645000020012, 47.922825999937828 ] } },
    { "type": "Feature", "properties": { "name": "Songinokhairkhan 5r khoroo" }, "geometry": { "type": "Point", "coordinates": [ 106.817432000020631, 47.932848999934897 ] } },
    { "type": "Feature", "properties": { "name": "Sukhbaatar 16r khoroo" }, "geometry": { "type": "Point", "coordinates": [ 106.929907000023817, 47.968354999918695 ] } },
    { "type": "Feature", "properties": { "name": "Sukhbaatar 9r khoroo" }, "geometry": { "type": "Point", "coordinates": [ 106.913833000023473, 47.929506999921244 ] } },
    { "type": "Feature", "properties": { "name": "Televiz" }, "geometry": { "type": "Point", "coordinates": [ 106.888629000022718, 47.929731999925025 ] } },
    { "type": "Feature", "properties": { "name": "Tolgoit" }, "geometry": { "type": "Point", "coordinates": [ 106.79480500002002, 47.922494999937818 ] } },
    { "type": "Feature", "properties": { "name": "Tuv Nomiin San" }, "geometry": { "type": "Point", "coordinates": [ 106.917010000023623, 47.914648999920779 ] } },
    { "type": "Feature", "properties": { "name": "US Embassy in Ulaanbaatar" }, "geometry": { "type": "Point", "coordinates": [ 106.929470000023954, 47.928386999918821 ] } },
    { "type": "Feature", "properties": { "name": "Urgakh naran" }, "geometry": { "type": "Point", "coordinates": [ 107.118019400030079, 47.866461099884475 ] } },
    { "type": "Feature", "properties": { "name": "Zaisan Buddha Garden" }, "geometry": { "type": "Point", "coordinates": [ 106.911610000023572, 47.885563999921665 ] } }
    ]
    }